City_ID,City,Country,Date,Lat,Lng,Max Temp,Humidity,Cloudiness,Wind Speed
0,Svetlogorsk,BY,2022-10-02 22:56:49,52.6333,29.7333,43.47,93,100,22.32
1,Aktau,KZ,2022-10-02 22:56:49,43.65,51.2,59.58,25,67,26.73
2,Bambous Virieux,MU,2022-10-02 22:56:49,-20.3428,57.7575,71.22,73,20,10.36
3,Hilo,US,2022-10-02 22:55:20,19.7297,-155.09,88.29,77,0,4.0
4,Vaini,TO,2022-10-02 22:56:34,-21.2,-175.2,78.96,73,75,9.22
5,Mataura,NZ,2022-10-02 22:55:11,-46.1927,168.8643,47.48,89,72,9.93
6,Cherskiy,RU,2022-10-02 22:56:50,68.75,161.3,28.17,90,100,11.97
7,Rikitea,PF,2022-10-02 22:56:50,-23.1203,-134.9692,74.82,63,8,3.83
8,Bluff,NZ,2022-10-02 22:56:51,-46.6,168.3333,47.8,53,94,20.11
9,Hobart,AU,2022-10-02 22:52:07,-42.8794,147.3294,53.26,82,75,8.05
10,Fare,PF,2022-10-02 22:56:51,-16.7,-151.0167,78.78,71,63,12.82
11,Hermanus,ZA,2022-10-02 22:54:13,-34.4187,19.2345,57.49,82,5,11.45
12,Longyearbyen,SJ,2022-10-02 22:56:51,78.2186,15.6401,37.24,93,75,3.44
13,Caravelas,BR,2022-10-02 22:56:52,-17.7125,-39.2481,73.72,89,21,7.81
14,Ushuaia,AR,2022-10-02 22:56:52,-54.8,-68.3,46.06,53,0,4.61
15,Aqtobe,KZ,2022-10-02 22:56:52,50.2797,57.2072,35.69,51,0,6.71
16,Narsaq,GL,2022-10-02 22:56:53,60.9167,-46.05,33.03,62,40,3.83
17,Ribeira Grande,PT,2022-10-02 22:56:53,38.5167,-28.7,71.74,88,100,9.91
18,Roma,US,2022-10-02 22:55:13,43.2128,-75.4557,55.38,56,99,3.0
19,Kodiak,US,2022-10-02 22:56:53,57.79,-152.4072,50.7,73,93,12.57
20,Ustye,RU,2022-10-02 22:56:53,59.6304,39.736,43.54,96,100,5.73
21,Tiznit,MA,2022-10-02 22:56:54,29.5833,-9.5,74.91,37,0,2.37
22,Bredasdorp,ZA,2022-10-02 22:56:54,-34.5322,20.0403,52.32,92,16,6.2
23,Severo-Kurilsk,RU,2022-10-02 22:56:55,50.6789,156.125,47.55,64,97,10.18
24,Buncrana,IE,2022-10-02 22:56:55,55.1333,-7.45,53.37,87,89,5.21
25,Aimores,BR,2022-10-02 22:56:55,-19.4958,-41.0639,75.43,75,43,7.7
26,Otjiwarongo,NA,2022-10-02 22:56:55,-20.4637,16.6477,70.21,17,0,8.05
27,Maragogi,BR,2022-10-02 22:56:56,-9.0122,-35.2225,74.57,79,35,9.4
28,Butaritari,KI,2022-10-02 22:56:56,3.0707,172.7902,82.35,75,66,16.51
29,Vinh,VN,2022-10-02 22:56:56,18.6667,105.6667,74.7,93,89,4.52
30,Noyabrsk,RU,2022-10-02 22:56:57,63.1994,75.4507,30.9,75,100,15.57
31,Albany,US,2022-10-02 22:51:59,42.6001,-73.9662,52.39,65,100,8.5
32,Victoria,HK,2022-10-02 22:55:19,22.2855,114.1577,83.32,88,14,5.01
33,Jamestown,US,2022-10-02 22:55:44,42.097,-79.2353,53.53,79,20,10.36
34,Oum Hadjer,TD,2022-10-02 22:56:57,13.2954,19.6966,81.45,61,19,18.5
35,Castro,BR,2022-10-02 22:56:57,-24.7911,-50.0119,61.21,86,60,3.78
36,Port Alfred,ZA,2022-10-02 22:55:24,-33.5906,26.891,62.19,97,7,1.99
37,Muyezerskiy,RU,2022-10-02 22:56:58,63.9333,31.65,42.17,97,100,2.28
38,Pemba,MZ,2022-10-02 22:55:09,-12.974,40.5178,75.04,73,2,7.16
39,Port-Gentil,GA,2022-10-02 22:56:58,-0.7193,8.7815,78.76,89,75,6.91
40,Craig,US,2022-10-02 22:54:12,40.5153,-107.5464,60.42,30,87,13.0
41,Teya,RU,2022-10-02 22:56:59,60.3778,92.6267,29.75,85,100,4.5
42,Erzin,TR,2022-10-02 22:56:59,36.9559,36.2,72.5,82,24,2.1
43,Mountain Home,US,2022-10-02 22:55:21,43.133,-115.6912,72.88,23,0,0.0
44,Kaitangata,NZ,2022-10-02 22:56:59,-46.2817,169.8464,48.07,77,63,15.66
45,Saskylakh,RU,2022-10-02 22:58:00,71.9167,114.0833,26.33,94,100,13.87
46,Arraial Do Cabo,BR,2022-10-02 22:58:00,-22.9661,-42.0278,69.66,94,75,10.36
47,Bilma,NE,2022-10-02 22:58:00,18.6853,12.9164,90.32,12,0,7.36
48,Farim,GW,2022-10-02 22:58:00,12.4839,-15.2217,75.33,93,89,3.15
49,Qaanaaq,GL,2022-10-02 22:56:32,77.484,-69.3632,8.53,73,18,7.72
50,Atuona,PF,2022-10-02 22:58:01,-9.8,-139.0333,76.98,75,22,17.07
51,Brae,GB,2022-10-02 22:58:01,60.3964,-1.353,53.69,90,77,19.3
52,Cockburn Town,TC,2022-10-02 22:58:01,21.4612,-71.1419,83.5,72,99,4.83
53,Aksha,RU,2022-10-02 22:58:02,50.2814,113.2867,25.86,68,16,10.42
54,Bonavista,CA,2022-10-02 22:57:47,48.6499,-53.1147,46.45,60,93,15.88
55,Haines Junction,CA,2022-10-02 22:58:02,60.7522,-137.5108,58.95,31,63,14.97
56,East London,ZA,2022-10-02 22:55:08,-33.0153,27.9116,66.85,93,23,10.38
57,Sorland,NO,2022-10-02 22:58:03,67.667,12.6934,51.66,87,100,15.41
58,Hamilton,US,2022-10-02 22:53:30,39.1834,-84.5333,67.08,61,0,3.0
59,Carnarvon,AU,2022-10-02 22:56:37,-24.8667,113.6333,64.13,62,0,15.55
60,Lebu,CL,2022-10-02 22:58:03,-37.6167,-73.65,51.48,84,80,4.74
61,Znamenskoye,RU,2022-10-02 22:58:03,57.1281,73.8282,27.01,84,8,5.06
62,Barrow,US,2022-10-02 22:58:04,71.2906,-156.7887,26.62,80,75,13.8
63,Saint-Augustin,CA,2022-10-02 22:58:04,51.226,-58.6502,41.4,47,61,11.1
64,Khatanga,RU,2022-10-02 22:54:33,71.9667,102.5,24.19,96,100,10.87
65,Poronaysk,RU,2022-10-02 22:58:04,49.2167,143.1167,54.93,82,94,9.37
66,Labuhan,ID,2022-10-02 22:58:05,-6.8844,112.2051,78.51,83,94,7.65
67,Birao,CF,2022-10-02 22:58:05,10.2849,22.7882,69.91,91,100,2.08
68,Mayo,US,2022-10-02 22:58:05,38.8876,-76.5119,56.08,94,100,11.01
69,Cape Town,ZA,2022-10-02 22:57:07,-33.9258,18.4232,60.89,83,40,5.75
70,Taybad,IR,2022-10-02 22:58:06,34.74,60.7756,57.25,30,0,5.95
71,Kapaa,US,2022-10-02 22:58:06,22.0752,-159.319,83.19,80,85,7.0
72,Cayenne,GF,2022-10-02 22:58:06,4.9333,-52.3333,82.44,78,0,3.44
73,Juneau,US,2022-10-02 22:53:12,58.3019,-134.4197,52.11,100,41,1.86
74,Rundu,NA,2022-10-02 22:58:07,-17.9333,19.7667,69.91,21,0,5.64
75,Storforshei,NO,2022-10-02 22:58:07,66.4043,14.5233,49.66,93,100,2.3
76,Punta Arenas,CL,2022-10-02 22:55:15,-53.15,-70.9167,46.51,66,0,10.36
77,Mulchen,CL,2022-10-02 22:58:08,-37.7167,-72.2333,63.03,64,100,3.11
78,Shenjiamen,CN,2022-10-02 22:58:08,29.9576,122.298,78.13,87,0,20.02
79,Ambon,ID,2022-10-02 22:58:08,-3.6954,128.1814,78.94,89,20,3.44
80,Tilichiki,RU,2022-10-02 22:58:08,60.4667,166.1,35.44,75,100,5.93
81,Pevek,RU,2022-10-02 22:58:09,69.7008,170.3133,30.76,88,100,10.0
82,Buckingham,GB,2022-10-02 22:58:09,51.9997,-0.9878,50.83,77,45,3.04
83,Dingle,PH,2022-10-02 22:58:09,10.9995,122.6711,79.65,89,95,5.3
84,Kahului,US,2022-10-02 22:58:10,20.8947,-156.47,79.84,94,27,3.0
85,Makueni,KE,2022-10-02 22:58:10,-1.8041,37.6203,58.96,78,50,3.42
86,Bathsheba,BB,2022-10-02 22:58:10,13.2167,-59.5167,79.41,94,40,9.22
87,Buraydah,SA,2022-10-02 22:58:10,26.326,43.975,73.85,14,0,7.45
88,Saint-Philippe,RE,2022-10-02 22:58:11,-21.3585,55.7679,65.79,80,28,8.75
89,Busselton,AU,2022-10-02 22:58:11,-33.65,115.3333,52.18,62,62,8.99
90,Avarua,CK,2022-10-02 22:55:18,-21.2078,-159.775,77.05,61,62,21.85
91,Port Macquarie,AU,2022-10-02 22:59:11,-31.4333,152.9167,61.9,63,3,7.29
92,Cidreira,BR,2022-10-02 22:59:12,-30.1811,-50.2056,61.48,88,49,7.49
93,Yerbogachen,RU,2022-10-02 22:59:12,61.2767,108.0108,27.63,81,99,5.44
94,Ixtapa,MX,2022-10-02 22:59:12,20.7,-105.2,83.23,78,100,5.64
95,Dunedin,NZ,2022-10-02 22:54:35,-45.8742,170.5036,49.39,72,39,20.56
96,Faanui,PF,2022-10-02 22:59:13,-16.4833,-151.75,78.71,72,37,14.14
97,Ostrovnoy,RU,2022-10-02 22:59:13,68.0531,39.5131,35.13,84,56,10.22
98,Salalah,OM,2022-10-02 22:56:51,17.0151,54.0924,77.49,83,56,4.34
99,Touros,BR,2022-10-02 22:59:13,-5.1989,-35.4608,77.02,75,9,15.75
100,Hithadhoo,MV,2022-10-02 22:59:14,-0.6,73.0833,81.28,68,72,14.52
101,Dikson,RU,2022-10-02 22:56:30,73.5069,80.5464,30.56,94,100,20.76
102,Atar,MR,2022-10-02 22:59:14,20.5169,-13.0499,91.24,24,20,4.5
103,Alibag,IN,2022-10-02 22:59:14,18.6411,72.8792,80.67,81,20,5.7
104,Vestmannaeyjar,IS,2022-10-02 22:59:15,63.4427,-20.2734,50.99,94,100,21.03
105,Arco,IT,2022-10-02 22:59:15,45.9177,10.8867,61.39,97,1,3.91
106,Waiouru,NZ,2022-10-02 22:59:15,-39.4833,175.6667,50.4,96,100,2.8
107,Bethel,US,2022-10-02 22:59:16,41.3712,-73.414,53.85,59,100,5.01
108,Upernavik,GL,2022-10-02 22:59:16,72.7868,-56.1549,21.02,87,18,9.4
109,Pisco,PE,2022-10-02 22:58:22,-13.7,-76.2167,62.65,77,19,14.97
110,Charters Towers,AU,2022-10-02 22:59:16,-20.1,146.2667,76.71,57,82,11.12
111,Pontianak,ID,2022-10-02 22:59:17,-0.0333,109.3333,73.38,100,20,2.3
112,Miyako,JP,2022-10-02 22:59:17,39.6367,141.9525,67.44,80,100,8.16
113,Torbay,CA,2022-10-02 22:59:17,47.6666,-52.7314,46.58,74,75,8.05
114,Robertsport,LR,2022-10-02 22:59:18,6.7533,-11.3686,76.91,89,100,10.85
115,Flinders,AU,2022-10-02 22:58:24,-34.5833,150.8552,63.37,71,3,4.0
116,Las Juntas,MX,2022-10-02 22:59:18,19.4167,-104.7,71.58,97,100,4.14
117,Ponta Do Sol,PT,2022-10-02 22:59:18,32.6667,-17.1,70.43,80,24,3.8
118,Half Moon Bay,US,2022-10-02 22:59:19,37.4636,-122.4286,78.58,64,0,8.05
119,Makokou,GA,2022-10-02 22:59:19,0.5738,12.8642,68.0,97,78,2.95
120,Lorengau,PG,2022-10-02 22:59:19,-2.0226,147.2712,84.58,68,28,7.99
121,Thompson,CA,2022-10-02 22:59:05,55.7435,-97.8558,71.76,37,40,19.57
122,Omsukchan,RU,2022-10-02 22:56:40,62.5333,155.8,18.75,91,97,5.46
123,Moussoro,TD,2022-10-02 22:59:19,13.6408,16.4901,89.35,31,1,8.41
124,Saint-Joseph,RE,2022-10-02 22:59:20,-21.3667,55.6167,64.78,79,17,7.92
125,Grimshaw,CA,2022-10-02 22:59:20,56.1834,-117.6027,65.82,26,20,2.3
126,Yabelo,ET,2022-10-02 22:59:20,4.8833,38.0833,64.72,49,91,6.08
127,Puerto Ayora,EC,2022-10-02 22:55:07,-0.7393,-90.3518,73.36,91,85,4.0
128,Tuktoyaktuk,CA,2022-10-02 22:59:21,69.4541,-133.0374,26.6,80,100,6.91
129,Nushki,PK,2022-10-02 22:59:21,29.5542,66.0215,70.34,19,0,3.76
130,Nikolskoye,RU,2022-10-02 22:59:21,59.7035,30.7861,44.49,92,99,5.7
131,San Quintin,MX,2022-10-02 22:59:21,30.4833,-115.95,70.74,71,27,15.05
132,Paraiso,CR,2022-10-02 22:59:22,9.8383,-83.8656,69.71,98,100,2.08
133,Harper,LR,2022-10-02 22:59:22,4.375,-7.7169,75.97,90,98,7.14
134,Tiksi,RU,2022-10-02 22:59:22,71.6872,128.8694,24.1,90,100,8.48
135,Souillac,MU,2022-10-02 22:59:23,-20.5167,57.5167,70.18,73,20,10.36
136,Zaraza,VE,2022-10-02 23:00:23,9.3503,-65.3245,78.46,83,91,3.42
137,Cotacachi,EC,2022-10-02 23:00:23,0.3,-78.2667,59.11,68,80,6.04
138,Kaeo,NZ,2022-10-02 23:00:24,-35.1,173.7833,65.32,86,77,8.84
139,Mantua,IT,2022-10-02 23:00:24,45.1667,10.7833,63.64,86,17,1.01
140,Eastbourne,GB,2022-10-02 22:58:28,50.7687,0.2845,56.71,86,11,2.64
141,Si Racha,TH,2022-10-02 23:00:24,13.1737,100.9311,81.19,80,100,5.35
142,Cabo San Lucas,MX,2022-10-02 22:59:22,22.8909,-109.9124,93.61,61,84,6.8
143,Viedma,AR,2022-10-02 23:00:25,-40.8135,-62.9967,45.88,65,88,12.5
144,Cervo,ES,2022-10-02 23:00:25,43.6702,-7.4101,64.96,92,99,9.86
145,New Norfolk,AU,2022-10-02 23:00:26,-42.7826,147.0587,53.92,68,99,1.01
146,Oranjestad,AW,2022-10-02 22:58:28,12.524,-70.027,85.95,70,40,16.11
147,Yellowknife,CA,2022-10-02 23:00:26,62.456,-114.3525,46.92,57,75,20.71
148,Bengkulu,ID,2022-10-02 23:00:26,-3.8004,102.2655,74.73,91,100,5.14
149,Kamaishi,JP,2022-10-02 23:00:27,39.2667,141.8833,67.73,79,100,6.02
150,Jiangyou,CN,2022-10-02 23:00:27,31.7667,104.7167,71.44,92,100,6.29
151,Juybar,IR,2022-10-02 23:00:28,36.6412,52.9124,68.61,79,0,3.42
152,Balabac,PH,2022-10-02 23:00:28,7.9868,117.0645,81.39,80,100,9.62
153,Vagur,FO,2022-10-02 23:00:26,61.4732,-6.8119,51.8,88,79,27.56
154,Quebrangulo,BR,2022-10-02 23:00:28,-9.3189,-36.4711,65.84,95,1,6.87
155,Nuevo Progreso,MX,2022-10-02 23:00:29,23.1667,-97.95,82.54,66,50,10.07
156,Hanzhong,CN,2022-10-02 23:00:29,33.0728,107.0303,59.76,88,95,7.49
157,Tabou,CI,2022-10-02 23:00:30,4.423,-7.3528,75.7,92,88,6.22
158,Boddam,GB,2022-10-02 23:00:30,57.4667,-1.7833,54.48,75,80,9.6
159,Nouakchott,MR,2022-10-02 22:56:43,18.0858,-15.9785,80.53,67,4,13.44
160,Chuy,UY,2022-10-02 23:00:31,-33.6971,-53.4616,54.88,78,2,5.46
161,Karacabey,TR,2022-10-02 23:00:31,40.2152,28.4038,63.59,58,0,4.74
162,Georgetown,MY,2022-10-02 23:00:32,5.4112,100.3354,78.89,89,20,0.0
163,Ishigaki,JP,2022-10-02 22:56:21,24.3448,124.1572,78.93,83,20,8.05
164,Chokurdakh,RU,2022-10-02 23:00:32,70.6333,147.9167,19.81,80,76,8.25
165,Naze,JP,2022-10-02 23:00:32,28.3667,129.4833,77.97,69,11,9.15
166,Provideniya,RU,2022-10-02 22:56:25,64.3833,-173.3,39.36,81,40,11.18
167,Port Shepstone,ZA,2022-10-02 23:00:33,-30.7414,30.455,67.42,91,26,13.35
168,Whitehorse,CA,2022-10-02 23:00:33,60.7161,-135.0538,54.01,50,30,18.99
169,Guliston,UZ,2022-10-02 23:00:34,40.4897,68.7842,52.11,31,32,2.82
170,Ilulissat,GL,2022-10-02 23:00:34,69.2167,-51.1,30.22,93,75,4.61
171,Marseille,FR,2022-10-02 22:57:04,43.3333,5.5,65.88,60,100,15.28
172,Lavrentiya,RU,2022-10-02 23:00:35,65.5833,-171.0,39.16,72,26,11.03
173,Manono,CD,2022-10-02 23:00:35,-7.3,27.4167,73.13,74,87,2.48
174,Sao Filipe,CV,2022-10-02 22:56:03,14.8961,-24.4956,78.3,71,71,8.48
175,Muli,MV,2022-10-02 23:00:36,2.9167,73.5667,81.12,76,99,19.44
176,Rio Grande,BR,2022-10-02 22:55:40,-32.035,-52.0986,59.11,87,10,3.56
177,Kalmunai,LK,2022-10-02 23:00:36,7.4167,81.8167,81.14,64,100,11.36
178,Bafoulabe,ML,2022-10-02 23:00:36,13.8065,-10.8321,75.43,91,98,2.71
179,Borogontsy,RU,2022-10-02 23:00:37,62.6683,131.1683,22.28,87,83,7.34
180,Mar Del Plata,AR,2022-10-02 22:59:06,-38.0023,-57.5575,50.09,77,0,12.66
181,Grindavik,IS,2022-10-02 22:57:44,63.8424,-22.4338,51.75,100,75,21.85
182,Olga,RU,2022-10-02 23:01:37,43.7444,135.2892,58.91,87,100,2.17
183,Puerto Colombia,CO,2022-10-02 23:01:37,10.9878,-74.9547,83.39,77,31,15.12
184,Hede,CN,2022-10-02 23:01:38,33.7681,120.2517,78.8,77,79,6.93
185,Zhuhai,CN,2022-10-02 23:01:23,22.2769,113.5678,82.18,89,40,8.05
186,Constitucion,CL,2022-10-02 23:01:38,-35.3333,-72.4167,52.68,89,27,7.54
187,Abu Samrah,SY,2022-10-02 22:58:59,35.3029,37.1841,73.58,50,20,8.14
188,Itoman,JP,2022-10-02 23:01:38,26.1247,127.6694,80.62,78,20,1.14
189,Kasongo,CD,2022-10-02 23:01:39,-4.45,26.6667,69.21,93,99,2.84
190,Madang,PG,2022-10-02 23:01:39,-5.2246,145.7966,80.15,87,39,2.24
191,Masinigudi,IN,2022-10-02 23:01:39,11.5667,76.6667,67.82,88,100,3.76
192,Sobolevo,RU,2022-10-02 23:01:40,54.4299,31.8996,47.03,96,100,17.29
193,Rafaela,AR,2022-10-02 23:00:14,-31.2503,-61.4867,71.98,28,0,1.99
194,West Milford,US,2022-10-02 23:00:04,41.1312,-74.3674,54.86,75,100,1.01
195,Tura,IN,2022-10-02 23:01:40,25.5198,90.2201,72.9,97,100,2.73
196,Mahebourg,MU,2022-10-02 23:01:40,-20.4081,57.7,71.26,77,20,8.05
197,Meulaboh,ID,2022-10-02 23:01:41,4.1363,96.1285,75.81,85,99,2.3
198,Alofi,NU,2022-10-02 22:57:28,-19.0595,-169.9187,80.49,57,59,12.66
199,Severomuysk,RU,2022-10-02 23:01:41,56.1481,113.4267,8.37,92,92,4.41
200,Talnakh,RU,2022-10-02 23:01:41,69.4865,88.3972,31.21,94,86,11.32
201,Sirsi,IN,2022-10-02 23:01:42,14.6167,74.85,68.45,98,100,3.62
202,Sola,VU,2022-10-02 22:59:17,-13.8833,167.55,80.44,75,14,8.14
203,Dawei,MM,2022-10-02 23:01:42,14.0833,98.2,75.15,94,100,3.36
204,Kropotkin,RU,2022-10-02 23:01:43,45.4375,40.5756,65.77,81,99,19.37
205,Kieta,PG,2022-10-02 22:57:49,-6.2167,155.6333,84.69,65,23,4.12
206,Alto Araguaia,BR,2022-10-02 23:01:43,-17.3147,-53.2153,72.05,81,88,4.07
207,Springfield,US,2022-10-02 22:59:13,37.2153,-93.2982,79.61,32,3,5.01
208,Hami,CN,2022-10-02 23:01:43,42.8,93.45,41.43,20,2,5.91
209,Ballina,AU,2022-10-02 22:59:31,-28.8667,153.5667,62.78,83,77,8.16
210,Boa Vista,BR,2022-10-02 23:01:44,2.8197,-60.6733,76.98,88,40,3.44
211,Pyaozerskiy,RU,2022-10-02 23:01:44,65.8333,31.1667,41.76,96,94,5.26
212,Nouadhibou,MR,2022-10-02 23:01:45,20.931,-17.0347,73.26,77,0,13.69
213,Kavaratti,IN,2022-10-02 23:01:45,10.5669,72.642,79.93,80,100,12.48
214,Hualmay,PE,2022-10-02 23:01:46,-11.0964,-77.6139,63.57,80,56,9.4
215,Oranjemund,NA,2022-10-02 22:59:37,-28.55,16.4333,56.66,93,0,8.19
216,Coahuayana,MX,2022-10-02 23:01:47,18.7333,-103.6833,76.91,95,99,2.39
217,Marsabit,KE,2022-10-02 23:01:47,2.3284,37.9899,63.0,60,94,21.41
218,Neyshabur,IR,2022-10-02 23:01:47,36.2133,58.7958,57.54,30,0,1.03
219,Saldanha,ZA,2022-10-02 23:01:48,-33.0117,17.9442,57.11,82,2,1.77
220,Sassandra,CI,2022-10-02 23:01:48,4.95,-6.0833,74.08,95,88,4.68
221,Kununurra,AU,2022-10-02 23:01:49,-15.7667,128.7333,76.98,78,76,1.14
222,Santiago De Cao,PE,2022-10-02 23:01:49,-7.9589,-79.2392,62.69,85,34,11.99
223,Rudnogorsk,RU,2022-10-02 23:01:49,57.2639,103.7519,26.71,92,100,7.34
224,Turukhansk,RU,2022-10-02 23:01:50,65.8167,87.9833,28.56,82,99,8.48
225,Koumac,NC,2022-10-02 23:01:50,-20.5667,164.2833,75.42,62,99,10.58
226,Pilar Do Sul,BR,2022-10-02 23:02:50,-23.8131,-47.7164,60.49,95,32,9.26
227,Guerrero Negro,MX,2022-10-02 23:02:50,27.9769,-114.0611,72.3,65,0,15.48
228,Archidona,ES,2022-10-02 23:02:51,37.0965,-4.3887,68.92,42,100,5.21
229,Kutum,SD,2022-10-02 23:02:51,14.2,24.6667,80.83,38,96,5.77
230,San Joaquin,US,2022-10-02 23:02:51,37.9333,-121.3011,82.54,40,0,11.5
231,Ancud,CL,2022-10-02 23:02:52,-41.8697,-73.8203,51.24,76,100,5.99
232,Edremit,TR,2022-10-02 23:02:52,39.5961,27.0244,62.8,59,0,7.09
233,Broome,US,2022-10-02 23:02:52,42.2506,-75.833,55.71,78,0,6.91
234,Edd,ER,2022-10-02 23:02:52,13.9297,41.6925,89.31,58,93,2.89
235,Nuuk,GL,2022-10-02 23:02:53,64.1835,-51.7216,36.21,64,20,4.61
236,Porto Novo,BJ,2022-10-02 23:02:53,6.4965,2.6036,75.9,88,95,2.01
237,Rifu,JP,2022-10-02 23:02:53,38.3236,140.9744,68.88,79,91,3.74
238,Bolshoye Murashkino,RU,2022-10-02 23:02:54,55.7826,44.7754,57.96,94,100,10.94
239,Sept-Iles,CA,2022-10-02 23:02:54,50.2001,-66.3821,45.05,57,34,1.99
240,Rumonge,BI,2022-10-02 23:02:54,-3.9736,29.4386,74.57,65,81,4.88
241,Araouane,ML,2022-10-02 23:02:54,18.9048,-3.5265,93.18,28,9,5.3
242,Ormara,PK,2022-10-02 23:02:55,25.2088,64.6357,79.29,82,14,8.59
243,Dunmore Town,BS,2022-10-02 23:02:55,25.5,-76.65,82.31,72,5,8.01
244,Fairbanks,US,2022-10-02 23:00:04,64.8378,-147.7164,44.6,91,100,2.15
245,Lodwar,KE,2022-10-02 23:02:21,3.1191,35.5973,83.1,38,80,7.63
246,Port Elizabeth,ZA,2022-10-02 23:01:25,-33.918,25.5701,64.31,94,19,4.0
247,Northam,GB,2022-10-02 23:02:55,51.0333,-4.2167,51.39,78,100,2.42
248,Bandarbeyla,SO,2022-10-02 23:02:56,9.4942,50.8122,77.07,81,100,23.35
249,Amapa,BR,2022-10-02 23:02:56,1.0,-52.0,80.31,58,69,5.3
250,Clyde River,CA,2022-10-02 23:00:32,70.4692,-68.5914,30.43,74,100,4.61
251,Middelburg,ZA,2022-10-02 23:02:57,-25.7751,29.4648,67.89,43,0,7.14
252,Basco,PH,2022-10-02 23:02:57,20.4487,121.9702,83.62,75,93,17.83
253,Yangambi,CD,2022-10-02 23:02:57,0.8102,24.4336,69.67,99,100,1.81
254,Codrington,AU,2022-10-02 23:00:27,-38.2667,141.9667,56.5,73,100,3.33
255,Port Lincoln,AU,2022-10-02 23:02:58,-34.7333,135.8667,62.73,63,100,13.38
256,Port Keats,AU,2022-10-02 23:02:58,-14.25,129.55,82.72,56,8,0.43
257,Nizwa,OM,2022-10-02 23:02:58,22.9333,57.5333,77.38,70,33,3.02
258,Hobyo,SO,2022-10-02 23:02:59,5.3505,48.5268,76.35,87,97,21.79
259,Rudnaya Pristan,RU,2022-10-02 23:02:59,44.3614,135.8116,58.64,86,95,1.92
260,Arman,RU,2022-10-02 23:02:59,59.7,150.1667,35.02,51,100,8.48
261,Plettenberg Bay,ZA,2022-10-02 23:03:00,-34.0527,23.3716,59.41,77,0,10.07
262,Pinega,RU,2022-10-02 23:03:00,64.7001,43.3936,39.09,97,100,4.43
263,Pacific Grove,US,2022-10-02 23:00:05,36.6177,-121.9166,74.25,68,5,3.0
264,Marathon,US,2022-10-02 23:03:00,44.9,-89.7668,63.09,68,0,5.75
265,Tres Picos,MX,2022-10-02 23:03:01,15.8667,-93.5333,83.07,74,87,3.06
266,Santa Maria,BR,2022-10-02 23:03:01,-29.6842,-53.8069,59.86,73,9,2.24
267,Puerto Escondido,MX,2022-10-02 23:03:01,15.85,-97.0667,81.18,79,85,1.07
268,Ulladulla,AU,2022-10-02 23:03:02,-35.35,150.4667,58.77,60,8,2.15
269,Yar-Sale,RU,2022-10-02 23:03:02,66.8333,70.8333,36.37,83,100,13.51
270,Hervey Bay,AU,2022-10-02 23:03:02,-25.2986,152.8535,69.03,77,64,7.0
271,Bubaque,GW,2022-10-02 23:04:03,11.2833,-15.8333,80.73,78,83,8.03
272,Muros,ES,2022-10-02 23:04:03,42.7762,-9.0603,61.84,85,99,7.14
273,Colac,AU,2022-10-02 23:04:03,-38.3333,143.5833,56.08,68,100,2.15
274,Okhotsk,RU,2022-10-02 23:04:04,59.3833,143.3,36.3,75,100,9.82
275,Impfondo,CG,2022-10-02 23:04:04,1.6381,18.0667,68.52,99,97,3.15
276,Bangangte,CM,2022-10-02 23:04:04,5.1409,10.5198,60.66,96,86,1.43
277,Necochea,AR,2022-10-02 23:00:06,-38.5473,-58.7368,43.48,76,75,9.24
278,Gambo,CF,2022-10-02 23:00:38,4.6482,22.2633,68.43,99,100,2.37
279,Sitka,US,2022-10-02 23:04:05,57.0531,-135.33,55.29,62,20,5.75
280,Erenhot,CN,2022-10-02 23:00:24,43.6475,111.9767,35.2,51,100,19.35
281,Talakan,RU,2022-10-02 23:04:05,50.3167,130.3667,37.22,92,100,9.42
282,Lircay,PE,2022-10-02 23:04:06,-12.9896,-74.7205,53.19,65,89,6.35
283,Havre-Saint-Pierre,CA,2022-10-02 23:04:06,50.2334,-63.5986,43.9,49,42,10.31
284,Sao Felix Do Xingu,BR,2022-10-02 23:03:24,-6.6447,-51.995,83.1,43,98,2.19
285,Panaba,MX,2022-10-02 23:04:06,21.2833,-88.2667,80.37,71,40,12.1
286,Castleisland,IE,2022-10-02 23:04:07,52.2333,-9.4667,52.05,85,100,3.8
287,Nizhneudinsk,RU,2022-10-02 23:04:07,54.9076,99.0276,21.22,95,44,3.42
288,Barcelos,PT,2022-10-02 23:02:59,41.5388,-8.6151,70.92,58,36,4.72
289,Ketchikan,US,2022-10-02 23:04:07,55.3422,-131.6461,55.87,71,20,12.66
290,Byron Bay,AU,2022-10-02 23:01:08,-28.65,153.6167,62.71,72,74,8.46
291,Reyes,BO,2022-10-02 23:04:08,-14.3167,-67.3833,80.74,55,42,0.92
292,Auki,SB,2022-10-02 23:04:08,-8.7676,160.7034,84.7,66,37,2.04
293,Zhangjiakou,CN,2022-10-02 23:04:08,40.81,114.8794,50.58,76,100,14.38
294,Naryan-Mar,RU,2022-10-02 23:04:09,67.6713,53.087,38.88,90,100,5.41
295,Pitimbu,BR,2022-10-02 23:04:09,-7.4706,-34.8086,76.51,76,16,12.8
296,Port Hedland,AU,2022-10-02 23:04:09,-20.3167,118.5667,75.25,78,64,8.05
297,Dubbo,AU,2022-10-02 23:04:10,-32.25,148.6167,57.33,72,33,12.66
298,Mehamn,NO,2022-10-02 23:04:10,71.0357,27.8492,40.91,93,100,3.44
299,Fort Nelson,CA,2022-10-02 23:04:10,58.8053,-122.7002,66.25,20,48,0.81
300,Goundam,ML,2022-10-02 23:04:11,16.4145,-3.6708,91.78,37,60,5.06
301,Kavieng,PG,2022-10-02 23:04:11,-2.5744,150.7967,84.18,69,5,9.53
302,Gat,IL,2022-10-02 23:03:43,31.61,34.7642,78.4,72,0,4.09
303,Taoudenni,ML,2022-10-02 23:02:56,22.6783,-3.9836,93.81,23,33,6.53
304,Walvis Bay,NA,2022-10-02 23:04:11,-22.9575,14.5053,56.08,85,0,8.95
305,Asilah,MA,2022-10-02 23:04:12,35.465,-6.0348,71.56,78,24,8.97
306,Gamba,GA,2022-10-02 23:04:12,-2.65,10.0,75.51,90,100,4.56
307,Wanning,CN,2022-10-02 23:04:12,18.8003,110.3967,78.42,88,33,3.24
308,Lompoc,US,2022-10-02 23:02:06,34.6391,-120.4579,78.94,65,0,12.66
309,Lebedinyy,RU,2022-10-02 23:04:13,58.5167,125.5167,18.84,95,100,4.54
310,Lere,NG,2022-10-02 23:04:13,10.387,8.5726,68.85,95,58,3.71
311,Champerico,GT,2022-10-02 22:59:50,14.3,-91.9167,86.54,80,88,4.83
312,Catamarca,AR,2022-10-02 23:00:49,-28.4696,-65.7852,78.06,44,7,14.72
313,Imbituba,BR,2022-10-02 23:02:14,-28.24,-48.6703,61.52,86,16,8.88
314,Bani,DO,2022-10-02 23:05:14,18.2833,-70.3333,81.86,78,87,2.42
315,Meadow Lake,US,2022-10-02 23:00:38,34.8014,-106.5436,77.81,33,53,6.82
316,Moron,AR,2022-10-02 23:05:14,-34.6534,-58.6198,68.94,69,15,10.45
317,Vila,PT,2022-10-02 23:05:14,42.0304,-8.1588,58.08,53,88,3.96
318,Kamenka,RU,2022-10-02 23:05:15,51.3223,42.7678,65.46,52,100,20.74
319,Abha,SA,2022-10-02 23:05:15,18.2164,42.5053,57.45,63,0,0.0
320,Tessalit,ML,2022-10-02 23:05:15,20.1986,1.0114,93.49,21,77,7.81
321,Oktyabrskoye,RU,2022-10-02 23:05:16,43.0645,44.7417,50.14,93,99,6.71
322,Rawson,AR,2022-10-02 23:00:56,-43.3002,-65.1023,50.83,53,100,17.92
323,Kruisfontein,ZA,2022-10-02 23:05:16,-34.0033,24.7314,56.88,69,0,13.69
324,Korla,CN,2022-10-02 23:05:16,41.7597,86.1469,45.99,26,0,12.77
325,Elizabeth City,US,2022-10-02 23:05:17,36.2946,-76.2511,69.03,83,100,10.36
326,Donauworth,DE,2022-10-02 23:05:17,48.7,10.8,54.1,95,91,8.28
327,Puente Nacional,CO,2022-10-02 23:05:17,5.8774,-73.6781,63.54,91,94,1.25
328,That Phanom,TH,2022-10-02 23:05:18,16.9364,104.7104,72.21,95,97,4.41
329,Zaysan,KZ,2022-10-02 23:05:18,47.4667,84.8667,31.28,40,0,2.04
330,Mao,ES,2022-10-02 23:05:18,39.8885,4.2658,64.96,82,0,2.3
331,Doka,SD,2022-10-02 23:05:18,13.5167,35.7667,74.07,86,85,7.43
332,Portland,US,2022-10-02 23:05:19,45.5234,-122.6762,90.55,40,0,9.22
333,Tautira,PF,2022-10-02 23:03:19,-17.7333,-149.15,77.45,74,99,11.77
334,Airai,TL,2022-10-02 23:05:19,-8.9266,125.4092,65.34,81,94,0.92
335,Kayerkan,RU,2022-10-02 23:05:19,69.3497,87.7602,30.52,86,87,10.27
336,Chanute,US,2022-10-02 23:05:20,37.6792,-95.4572,83.88,18,0,9.22
337,Tasiilaq,GL,2022-10-02 23:05:20,65.6145,-37.6368,39.36,97,100,20.54
338,Norman Wells,CA,2022-10-02 23:05:11,65.282,-126.8329,33.84,93,75,3.44
339,Suntar,RU,2022-10-02 23:05:20,62.1444,117.6319,28.42,95,100,5.08
340,Poya,NC,2022-10-02 23:05:21,-21.35,165.15,75.42,60,100,7.09
341,Lockport,US,2022-10-02 23:00:27,41.5895,-88.0578,65.17,66,0,14.97
342,Kasama,ZM,2022-10-02 23:05:21,-10.2129,31.1808,64.92,43,2,5.91
343,Saint George,US,2022-10-02 23:05:21,37.1041,-113.5841,88.43,37,0,5.75
344,Usinsk,RU,2022-10-02 23:05:21,65.9939,57.5281,41.47,98,100,7.09
345,Nikel,RU,2022-10-02 23:05:22,69.4128,30.222,41.18,96,100,4.92
346,Hasaki,JP,2022-10-02 23:05:22,35.7333,140.8333,74.21,67,99,7.23
347,Solnechnyy,RU,2022-10-02 23:05:22,50.7214,136.6319,46.2,98,100,2.71
348,Tadine,NC,2022-10-02 23:05:23,-21.55,167.8833,73.72,72,100,12.55
349,Sao Geraldo Do Araguaia,BR,2022-10-02 23:05:23,-6.4006,-48.555,87.1,22,10,2.53
350,Sisimiut,GL,2022-10-02 23:05:23,66.9395,-53.6735,31.78,81,91,9.51
351,Newport,GB,2022-10-02 23:05:10,51.5877,-2.9984,53.71,83,60,6.33
352,Tuatapere,NZ,2022-10-02 23:05:24,-46.1333,167.6833,46.69,70,99,13.22
353,Chimoio,MZ,2022-10-02 23:05:24,-19.1164,33.4833,62.49,64,0,1.83
354,Sorong,ID,2022-10-02 23:05:24,-0.8833,131.25,78.46,85,89,4.81
355,Fortuna Foothills,US,2022-10-02 23:05:24,32.6578,-114.4119,97.36,33,75,9.22
356,Richards Bay,ZA,2022-10-02 23:05:25,-28.783,32.0377,68.49,95,1,7.23
357,Figeac,FR,2022-10-02 23:05:25,44.75,1.9167,57.09,98,69,2.19
358,Qaqortoq,GL,2022-10-02 23:05:25,60.7167,-46.0333,35.6,68,28,1.97
359,Qasigiannguit,GL,2022-10-02 23:05:26,68.8193,-51.1922,30.45,92,97,3.87
360,Vyyezdnoye,RU,2022-10-02 23:05:26,55.3815,43.7864,59.05,85,100,3.0
361,Venado Tuerto,AR,2022-10-02 23:05:26,-33.7456,-61.9688,72.77,31,2,8.23
362,Laguna,US,2022-10-02 23:05:27,38.421,-121.4238,86.34,41,0,6.91
363,Alice Town,BS,2022-10-02 23:03:18,25.7167,-79.3,79.93,74,65,17.25
364,Kiruna,SE,2022-10-02 23:06:27,67.8557,20.2251,34.72,93,100,6.91
365,Watsa,CD,2022-10-02 23:06:27,3.0372,29.5355,62.87,99,100,3.49
366,Guiberoua,CI,2022-10-02 23:06:28,6.2392,-6.1727,70.65,100,100,3.24
367,Camacha,PT,2022-10-02 23:06:28,33.0833,-16.3333,67.42,73,20,4.61
368,Leninskoye,KZ,2022-10-02 23:06:28,41.7589,69.3864,59.74,27,63,2.46
369,Amzya,RU,2022-10-02 23:06:29,56.2354,54.3868,52.66,65,100,10.74
370,Rocha,UY,2022-10-02 23:06:29,-34.4833,-54.3333,52.47,95,6,8.55
371,Antofagasta,CL,2022-10-02 23:06:29,-23.65,-70.4,58.28,77,46,6.6
372,Lakhnadon,IN,2022-10-02 23:06:10,22.6,79.6,68.77,84,91,6.64
373,Wells,GB,2022-10-02 23:06:30,51.2079,-2.649,53.46,89,65,1.12
374,Candido De Abreu,BR,2022-10-02 23:06:30,-24.5669,-51.3333,64.99,88,46,1.48
375,Hambantota,LK,2022-10-02 23:06:30,6.1241,81.1185,79.83,76,94,20.98
376,Bajil,YE,2022-10-02 23:06:31,15.0584,43.2851,87.93,53,60,1.88
377,Havelock,US,2022-10-02 23:06:31,34.8791,-76.9013,67.95,80,100,8.05
378,Kidal,ML,2022-10-02 23:06:31,18.4411,1.4078,94.15,22,35,6.15
379,Evensk,RU,2022-10-02 23:06:32,61.95,159.2333,34.27,55,31,5.88
380,Villa Florida,PY,2022-10-02 23:06:32,-26.3833,-57.15,65.26,60,0,5.03
381,Chapais,CA,2022-10-02 23:02:46,49.7834,-74.8492,36.7,60,34,4.0
382,Diego De Almagro,CL,2022-10-02 23:06:32,-26.3667,-70.05,66.29,25,0,4.79
383,Pentecoste,BR,2022-10-02 23:04:11,-3.7928,-39.2703,76.89,68,19,7.36
384,Olafsvik,IS,2022-10-02 23:06:33,64.8945,-23.7142,49.23,87,99,17.36
385,Sinnai,IT,2022-10-02 23:06:33,39.3042,9.2036,69.51,77,0,9.22
386,Bac Lieu,VN,2022-10-02 23:06:33,9.285,105.7244,77.31,85,100,5.77
387,Comodoro Rivadavia,AR,2022-10-02 23:06:34,-45.8667,-67.5,49.86,71,0,17.27
388,Lao Cai,VN,2022-10-02 23:06:34,22.4833,103.95,73.51,100,98,0.43
389,Nanortalik,GL,2022-10-02 23:06:34,60.1432,-45.2371,37.08,83,40,11.39
390,Teknaf,BD,2022-10-02 23:06:35,20.8624,92.3058,77.52,93,100,11.39
391,Verkhnevilyuysk,RU,2022-10-02 23:06:35,63.4453,120.3167,23.92,92,77,2.13
392,Artyom,AZ,2022-10-02 23:06:35,40.4723,50.333,73.54,65,8,22.7
393,Teguldet,RU,2022-10-02 23:06:36,57.3064,88.1667,24.82,91,36,1.9
394,San Marcos,US,2022-10-02 23:03:28,33.1434,-117.1661,82.9,69,75,11.5
395,Taylorville,US,2022-10-02 23:06:36,39.5489,-89.2945,73.38,40,0,9.22
396,Bonthe,SL,2022-10-02 23:06:36,7.5264,-12.505,76.26,90,100,8.25
397,Gizo,SB,2022-10-02 23:06:37,-8.103,156.8419,83.28,70,78,3.13
398,Beziers,FR,2022-10-02 23:06:37,43.3476,3.219,65.68,68,0,8.05
399,Weymouth,US,2022-10-02 23:06:37,42.2209,-70.9398,53.01,62,75,18.41
400,Utiel,ES,2022-10-02 23:03:34,39.5667,-1.2,62.83,40,48,3.58
401,Esperance,AU,2022-10-02 23:06:38,-33.8667,121.9,54.52,78,82,17.74
402,Margate,GB,2022-10-02 23:02:21,51.3813,1.3862,52.3,62,3,3.44
403,Albanel,CA,2022-10-02 23:06:38,48.8832,-72.4487,40.75,55,1,3.94
404,Teguise,ES,2022-10-02 23:01:46,29.0605,-13.564,70.02,83,20,9.22
405,Terre-De-Bas,GP,2022-10-02 23:06:38,15.8501,-61.6442,76.51,74,55,12.21
406,Ambilobe,MG,2022-10-02 23:06:39,-13.2,49.05,63.95,77,2,3.96
407,Misratah,LY,2022-10-02 23:06:39,32.3754,15.0925,74.89,65,0,12.55
408,Taltal,CL,2022-10-02 23:06:39,-25.4,-70.4833,60.22,74,27,4.27
409,Vestmanna,FO,2022-10-02 23:06:39,62.1564,-7.1664,50.92,93,100,14.97
410,Paamiut,GL,2022-10-02 23:03:17,61.994,-49.6678,36.55,71,27,14.0
411,Bafra,TR,2022-10-02 23:06:40,41.5678,35.9069,65.82,83,96,15.59
412,Olavarria,AR,2022-10-02 23:05:54,-36.8927,-60.3225,60.71,30,56,15.52
413,Kupang,ID,2022-10-02 23:07:40,-10.1667,123.5833,81.43,75,24,6.2
414,Swan Hill,AU,2022-10-02 23:07:40,-35.3378,143.5544,60.19,56,100,6.73
415,Acapulco,MX,2022-10-02 23:07:41,16.8634,-99.8901,84.02,65,20,6.91
416,Tazovskiy,RU,2022-10-02 23:07:41,67.4667,78.7,32.27,97,100,13.22
417,Mount Gambier,AU,2022-10-02 23:07:41,-37.8333,140.7667,58.55,71,91,3.56
418,Arlit,NE,2022-10-02 23:07:42,18.7369,7.3853,93.13,11,0,13.53
419,Ekhabi,RU,2022-10-02 23:07:42,53.5102,142.9671,47.28,87,100,9.64
420,Luderitz,NA,2022-10-02 23:07:42,-26.6481,15.1594,58.19,77,0,13.6
421,Puerto Narino,CO,2022-10-02 23:07:42,-3.7703,-70.3831,73.6,96,93,1.57
422,Kudahuvadhoo,MV,2022-10-02 23:07:43,2.6708,72.8944,81.3,75,100,17.4
423,Pangnirtung,CA,2022-10-02 23:07:43,66.1451,-65.7125,30.83,59,1,3.29
424,Metro,ID,2022-10-02 23:07:43,-5.1131,105.3067,73.29,91,100,4.03
425,Mitchell,US,2022-10-02 23:07:44,43.7094,-98.0298,81.1,23,0,18.41
426,Arica,CL,2022-10-02 23:03:31,-18.475,-70.3042,60.46,80,30,3.76
427,Klaksvik,FO,2022-10-02 23:03:11,62.2266,-6.589,52.72,90,30,19.75
428,Santa Margherita Ligure,IT,2022-10-02 23:07:44,44.3346,9.212,67.75,89,46,1.99
429,Mumford,GH,2022-10-02 23:07:44,5.2618,-0.759,75.69,90,38,6.49
430,Lianzhou,CN,2022-10-02 23:07:45,24.7811,112.3825,75.25,89,0,1.63
431,Homer,US,2022-10-02 23:07:45,59.6425,-151.5483,53.47,85,100,5.75
432,Izhma,RU,2022-10-02 23:07:45,65.0083,53.9113,42.03,99,100,1.83
433,San Cristobal,VE,2022-10-02 23:07:45,7.7669,-72.225,75.38,87,81,3.27
434,Jalu,LY,2022-10-02 23:05:46,29.0331,21.5482,79.75,42,0,16.91
435,Skegness,GB,2022-10-02 23:07:46,53.1436,0.3363,54.05,78,10,7.78
436,Frederikshavn,DK,2022-10-02 23:07:46,57.4407,10.5366,53.28,83,7,14.61
437,Palmer,US,2022-10-02 23:04:24,42.1584,-72.3287,51.42,61,75,6.91
438,Kirya,TZ,2022-10-02 23:07:47,-3.9167,37.4833,66.61,75,61,7.81
439,Namatanai,PG,2022-10-02 23:07:47,-3.6667,152.4333,85.01,63,8,6.53
440,Challapata,BO,2022-10-02 23:07:47,-18.9,-66.7667,50.74,58,65,8.95
441,Sokolo,ML,2022-10-02 23:07:47,14.7328,-6.1219,82.13,62,35,7.7
442,San Vicente,AR,2022-10-02 23:07:48,-26.6167,-54.1333,58.66,82,15,4.14
443,Gigmoto,PH,2022-10-02 23:07:48,13.7796,124.39,81.86,81,100,4.94
444,Paracuru,BR,2022-10-02 23:03:41,-3.41,-39.0306,80.11,79,10,13.22
445,Eirunepe,BR,2022-10-02 23:07:48,-6.6603,-69.8736,73.2,95,91,1.43
446,Srednekolymsk,RU,2022-10-02 23:05:03,67.45,153.6833,25.93,79,96,2.35
447,Daru,PG,2022-10-02 23:07:49,-9.0763,143.2092,81.27,84,86,11.99
448,Husavik,IS,2022-10-02 23:03:13,66.0449,-17.3389,43.59,83,80,9.48
449,Kalakamati,BW,2022-10-02 23:07:49,-20.5929,27.3121,69.12,22,0,9.86
450,Riorges,FR,2022-10-02 23:07:50,46.0418,4.0497,58.44,86,15,2.42
451,Umuahia,NG,2022-10-02 23:07:50,5.5263,7.4896,71.58,97,97,2.89
452,Valentin Gomez Farias,MX,2022-10-02 23:07:50,28.2167,-106.5833,72.88,39,43,11.92
453,Sterling,US,2022-10-02 23:03:15,39.0062,-77.4286,55.22,93,100,13.0
454,Saint-Pierre,RE,2022-10-02 23:07:50,-21.3393,55.4781,65.88,68,0,6.91
455,Jacarau,BR,2022-10-02 23:07:51,-6.6122,-35.2928,70.03,87,25,6.64
456,Hofn,IS,2022-10-02 23:07:51,64.2539,-15.2082,46.54,73,98,3.22
457,Grand Gaube,MU,2022-10-02 23:04:29,-20.0064,57.6608,71.38,65,45,3.0
458,Volga,RU,2022-10-02 23:07:51,57.9516,38.3879,45.61,95,100,7.87
459,Yangjiang,CN,2022-10-02 23:08:52,21.85,111.9667,76.75,95,39,4.79
460,Seymchan,RU,2022-10-02 23:08:52,62.8833,152.4333,22.96,88,94,3.83
461,Fria,GN,2022-10-02 23:08:52,10.4167,-13.5833,73.22,96,97,0.94
462,Tshikapa,CD,2022-10-02 23:08:53,-6.4167,20.8,70.25,87,91,2.75
463,Mitsamiouli,KM,2022-10-02 23:07:40,-11.3847,43.2844,73.83,75,0,3.0
464,Shuangyang,CN,2022-10-02 23:05:19,43.5242,125.6736,53.82,84,100,10.47
465,Pudozh,RU,2022-10-02 23:08:53,61.8099,36.5345,41.88,83,100,4.21
466,Den Helder,NL,2022-10-02 23:08:53,52.9599,4.7593,58.98,75,20,8.01
467,Spokane,US,2022-10-02 23:06:09,47.6166,-117.3677,79.2,36,0,5.75
468,Stornoway,GB,2022-10-02 23:08:54,58.2093,-6.3865,55.36,85,100,8.05
469,Pangody,RU,2022-10-02 23:08:54,65.85,74.4859,33.57,74,100,14.07
470,Privolnyy,RU,2022-10-02 23:08:54,44.0998,46.6587,70.56,56,95,28.7
471,Barranca,PE,2022-10-02 23:08:55,-10.75,-77.7667,62.38,82,40,8.46
472,Matara,LK,2022-10-02 23:08:55,5.9485,80.5353,78.26,84,96,17.92
473,Merauke,ID,2022-10-02 23:08:55,-8.4667,140.3333,80.85,82,62,10.02
474,Opuwo,NA,2022-10-02 23:08:56,-18.0607,13.84,72.82,23,0,2.1
475,Swellendam,ZA,2022-10-02 23:08:56,-34.0226,20.4417,54.54,94,1,0.87
476,Kristiinankaupunki,FI,2022-10-02 23:08:56,62.2743,21.376,46.33,87,100,5.1
477,Luanda,AO,2022-10-02 23:08:57,-8.8368,13.2343,73.4,94,20,6.91
478,Miechow,PL,2022-10-02 23:08:57,50.3565,20.0279,50.59,91,73,14.94
479,Komsomolskiy,UZ,2022-10-02 23:08:57,40.4272,71.7189,56.12,100,6,4.61
480,Taloqan,AF,2022-10-02 23:08:58,36.7361,69.5345,57.81,31,50,5.21
481,Lafiagi,NG,2022-10-02 23:08:58,8.8667,5.4167,74.91,88,33,2.86
482,Saint-Michel-Des-Saints,CA,2022-10-02 23:04:24,46.6834,-73.9159,41.94,60,0,2.46
483,Utinga,BR,2022-10-02 23:08:58,-5.8172,-35.3954,76.05,83,20,5.75
484,Pasighat,IN,2022-10-02 23:08:59,28.0667,95.3333,75.38,89,100,2.86
485,Weatherford,US,2022-10-02 23:06:20,32.7593,-97.7972,83.12,29,0,3.0
486,Biograd Na Moru,HR,2022-10-02 23:08:59,43.9433,15.4519,63.3,74,33,2.59
487,Leningradskiy,RU,2022-10-02 23:08:59,69.3833,178.4167,28.6,80,100,2.15
488,Faisalabad,PK,2022-10-02 23:09:00,31.4167,73.0833,78.1,35,0,0.74
489,Rawdon,CA,2022-10-02 23:09:00,46.0501,-73.7159,48.13,60,51,3.96
490,Lyubim,RU,2022-10-02 23:09:00,58.3625,40.6843,45.55,97,100,4.29
491,Sinnamary,GF,2022-10-02 23:09:01,5.3833,-52.95,80.33,85,97,9.33
492,Herat,AF,2022-10-02 23:09:01,34.5,62.0,54.21,32,0,8.57
493,Avera,US,2022-10-02 23:09:01,33.194,-82.5271,73.45,55,40,8.08
494,Lundazi,ZM,2022-10-02 23:09:02,-12.2929,33.1782,65.68,44,0,7.25
495,Karratha,AU,2022-10-02 23:09:02,-20.7377,116.8463,73.29,54,18,11.14
496,Ilinskiy,RU,2022-10-02 23:09:02,55.619,38.1182,57.54,94,75,11.18
497,Ondarroa,ES,2022-10-02 23:09:03,43.3167,-2.4167,61.7,93,100,3.02
498,Mount Isa,AU,2022-10-02 23:07:40,-20.7333,139.5,80.37,26,100,3.44
499,Estelle,US,2022-10-02 23:09:03,29.8458,-90.1067,82.99,37,0,4.61
500,Tolaga Bay,NZ,2022-10-02 23:09:03,-38.3667,178.3,61.72,85,63,5.86
501,Port Hardy,CA,2022-10-02 23:09:04,50.6996,-127.4199,61.34,85,32,7.23
502,Katsuura,JP,2022-10-02 23:09:04,35.1333,140.3,74.1,69,83,8.66
503,Beloha,MG,2022-10-02 23:07:20,-25.1667,45.05,67.26,72,0,5.14
504,Pombas,CV,2022-10-02 23:10:04,17.1503,-25.0201,74.98,61,49,9.15
505,Conceicao Da Barra,BR,2022-10-02 23:10:05,-18.5933,-39.7322,73.99,84,9,10.85
506,Barentu,ER,2022-10-02 23:10:05,15.1139,37.5928,76.98,43,27,5.28
507,Anisoc,GQ,2022-10-02 23:10:05,1.8658,10.7689,67.73,99,100,1.9
508,Prigorodka,RU,2022-10-02 23:10:06,52.0447,39.7124,60.8,75,100,20.47
509,Camocim,BR,2022-10-02 23:10:06,-2.9022,-40.8411,78.12,79,4,18.43
510,Bizhbulyak,RU,2022-10-02 23:10:06,53.6967,54.2642,50.83,44,100,14.74
511,Chicaman,GT,2022-10-02 23:10:07,15.4,-90.7667,65.52,95,82,3.58
512,Ushumun,RU,2022-10-02 23:10:07,52.7833,126.5333,28.51,55,0,11.74
513,Chase,CA,2022-10-02 23:10:07,50.8165,-119.6857,79.32,34,0,0.83
514,Geraldton,AU,2022-10-02 23:10:07,-28.7667,114.6,55.81,76,79,17.27
515,Isangel,VU,2022-10-02 23:10:08,-19.55,169.2667,80.04,72,21,10.31
516,Palmerston,AU,2022-10-02 23:10:08,-12.486,130.9833,84.92,81,0,4.61
517,Lasa,IT,2022-10-02 23:10:08,46.6166,10.7002,45.7,93,34,7.67
518,El Vigia,VE,2022-10-02 23:10:09,8.6219,-71.6506,79.83,77,86,3.18
519,Tulsipur,NP,2022-10-02 23:10:09,28.131,82.2973,70.79,74,0,4.5
520,Kangaba,ML,2022-10-02 23:10:09,11.9333,-8.4167,73.02,93,94,4.54
521,Pangai,TO,2022-10-02 23:07:19,-19.8,-174.35,76.87,73,55,21.39
522,Umm Kaddadah,SD,2022-10-02 23:10:10,13.6017,26.6876,86.72,42,65,11.99
523,Sabang,ID,2022-10-02 23:10:10,5.8933,95.3214,81.28,76,96,21.27
524,Bongandanga,CD,2022-10-02 23:10:10,1.5,21.05,67.39,99,100,1.72
525,Amahai,ID,2022-10-02 23:10:10,-3.3333,128.9167,80.37,77,67,1.81
526,Manavgat,TR,2022-10-02 23:10:11,36.7867,31.4431,76.53,72,0,9.78
527,Chicama,PE,2022-10-02 23:10:11,-7.8447,-79.1469,57.74,74,28,6.91
528,Jardim,BR,2022-10-02 23:10:12,-21.4803,-56.1381,72.48,74,14,5.14
529,Corn Island,NI,2022-10-02 23:10:12,12.1694,-83.0418,82.22,71,100,7.16
530,Honningsvag,NO,2022-10-02 23:10:12,70.9821,25.9704,40.75,81,100,2.3
531,Mackay,AU,2022-10-02 23:10:13,-21.15,149.2,76.68,74,89,12.68
532,Santa Elena,EC,2022-10-02 23:10:13,-2.2333,-80.85,67.55,83,100,8.05
533,Omboue,GA,2022-10-02 23:10:13,-1.5746,9.2618,75.88,89,100,5.21
534,Bushehr,IR,2022-10-02 23:10:13,28.9684,50.8385,84.69,68,0,8.88
535,Kyenjojo,UG,2022-10-02 23:09:18,0.6328,30.6214,59.81,98,79,2.01
536,Sibolga,ID,2022-10-02 23:10:14,1.7427,98.7792,74.34,90,100,2.37
537,Vadso,NO,2022-10-02 23:10:14,70.0744,29.7487,41.88,93,75,2.3
538,Menongue,AO,2022-10-02 23:05:42,-14.6585,17.691,65.61,29,52,3.76
539,Bereda,ES,2022-10-02 23:10:15,43.2686,-7.5406,59.14,100,100,2.82
540,Strizhi,RU,2022-10-02 23:10:15,58.4576,49.2867,54.34,97,95,6.06
541,Mulanje,MW,2022-10-02 23:10:15,-16.0316,35.5,70.32,59,0,4.85
542,Santiago Del Estero,AR,2022-10-02 23:10:16,-27.7951,-64.2615,75.88,29,0,7.72
543,Sainte-Marie,RE,2022-10-02 23:10:16,-20.8968,55.5496,69.93,64,100,10.36
544,Seoul,KR,2022-10-02 23:09:14,37.5683,126.9778,71.04,98,100,2.01
545,Zarinsk,RU,2022-10-02 23:10:17,53.7074,84.9493,27.27,86,12,5.86
546,El Sauzal,MX,2022-10-02 23:10:17,31.9,-116.6833,71.42,74,6,10.36
547,Owatonna,US,2022-10-02 23:10:17,44.0839,-93.226,72.72,38,0,4.61
548,Boyabat,TR,2022-10-02 23:10:17,41.4689,34.7667,59.63,79,60,4.94
549,Kouroussa,GN,2022-10-02 23:10:18,10.65,-9.8833,71.37,94,77,1.12
550,Biu,NG,2022-10-02 23:11:18,10.6129,12.1946,71.62,88,92,9.06
551,Kulachi,PK,2022-10-02 23:08:18,31.9286,70.4592,83.98,38,0,5.08
552,Alekseyevsk,RU,2022-10-02 23:11:19,57.8406,108.3492,29.39,92,100,6.69
553,Telimele,GN,2022-10-02 23:11:19,10.9167,-13.3333,70.65,95,97,0.09
554,Wanxian,CN,2022-10-02 23:11:19,30.8039,108.3897,77.65,77,38,3.71
555,Douglas,US,2022-10-02 23:09:12,41.3,-96.167,78.73,34,0,9.22
556,Dudinka,RU,2022-10-02 23:11:19,69.4058,86.1778,31.62,95,100,17.2
557,Maniitsoq,GL,2022-10-02 23:11:20,65.4167,-52.9,35.47,63,86,3.71
558,Burgeo,CA,2022-10-02 23:11:20,47.6167,-57.6152,44.11,63,100,14.94
559,Lukovetskiy,RU,2022-10-02 23:11:20,64.2956,41.9211,40.91,90,100,4.72
560,Imelda,PH,2022-10-02 23:11:21,7.65,123.95,79.77,85,100,2.75
561,Palauig,PH,2022-10-02 23:11:21,15.435,119.9045,81.72,71,99,3.27
562,Carutapera,BR,2022-10-02 23:11:21,-1.195,-46.02,79.43,80,51,9.1
563,Tromso,NO,2022-10-02 23:11:21,69.6496,18.957,37.38,93,40,2.3
564,Bethanien,NA,2022-10-02 23:11:22,-26.502,17.1583,69.08,24,0,3.49
565,Kargasok,RU,2022-10-02 23:11:22,59.0556,80.8572,26.98,84,48,5.97
566,Zuwarah,LY,2022-10-02 23:11:22,32.9312,12.082,72.81,66,0,3.06
567,Padang,ID,2022-10-02 23:11:23,-0.9492,100.3543,76.01,91,97,3.31
568,Wana,PK,2022-10-02 23:11:23,32.2989,69.5725,68.5,51,0,3.06
569,Sabha,LY,2022-10-02 23:11:23,27.0377,14.4283,81.19,47,0,17.09
570,Escarcega,MX,2022-10-02 23:11:24,18.6089,-90.7454,81.36,57,62,6.38
571,Katuli,PH,2022-10-02 23:11:24,7.4333,124.2167,76.68,86,100,3.18
